[
    {
        "id": 12345,
        "name": "The Shaftesbury Theatre",
        "coordinates": {
            "latitude": 51.517199,
            "longitude": -0.125702
        },
        "imageName": "turtlerock",
        "isFavorite": false
    },
    {
        "id": 12346,
        "name": "Museo de Londres",
        "coordinates": {
            "latitude": 51.517851,
            "longitude": -0.096613
        },
        "imageName": "silversalmoncreek",
        "isFavorite": false
    },
    {
        "id": 12347,
        "name": "St Lawrence Jewry",
        "coordinates": {
            "latitude": 51.515622,
            "longitude": -0.092559
        },
        "imageName": "chilkoottrail",
        "isFavorite": false
    },
    {
        "id": 1,
        "name": "Sagrada Família",
        "coordinates": {
            "latitude": 41.403831,
            "longitude": 2.174399
        },
        "imageName": "stmarylake",
        "isFavorite": false
    },
    {
        "id": 2,
        "name": "Parc Güell",
        "coordinates": {
            "latitude": 41.414465,
            "longitude": 2.153044
        },
        "imageName": "turtlerock",
        "isFavorite": false
    },
    {
        "id": 3,
        "name": "Cine Verdi",
        "coordinates": {
            "latitude": 41.404713,
            "longitude": 2.156921
        },
        "imageName": "twinlake",
        "isFavorite": false
    },
    {
        "id": 4,
        "name": "Plaça Kennedy",
        "coordinates": {
            "latitude": 41.409991,
            "longitude": 2.136940
        },
        "imageName": "lakemcdonald",
        "isFavorite": false
    },
    {
        "id": 5,
        "name": "Monasterio Pedralbes",
        "coordinates": {
            "latitude": 41.398215,
            "longitude": 2.111951
        },
        "imageName": "yukon_charleyrivers",
        "isFavorite": false
    },
    {
        "id": 6,
        "name": "Plaça Catalunya",
        "coordinates": {
            "latitude": 41.387219,
            "longitude": 2.170041
        },
        "imageName": "turtlerock",
        "isFavorite": false
    },
    {
        "id": 7,
        "name": "C.C. La illa",
        "coordinates": {
            "latitude": 41.390128,
            "longitude": 2.135641
        },
        "imageName": "icybay",
        "isFavorite": false
    },
    {
        "id": 8,
        "name": "Goiko Les Corts",
        "coordinates": {
            "latitude": 41.389884,
            "longitude": 2.132114
        },
         "imageName": "turtlerock",
         "isFavorite": false
    },
    {
        "id": 9,
        "name": "Hilton Barcelona",
        "coordinates": {
            "latitude": 41.388942,
            "longitude": 2.131438
        },
        "imageName": "rainbowlake",
        "isFavorite": false
    },
    {
        "id": 10,
        "name": "C.C. Les Glories",
        "coordinates": {
            "latitude": 41.405887,
            "longitude": 2.191378
        },
        "imageName": "hiddenlake",
        "isFavorite": false
    },
    {
        "id": 11,
        "name": "CAP El Clot",
        "coordinates": {
            "latitude": 41.411989,
            "longitude": 2.192907
        },
        "imageName": "chincoteague",
        "isFavorite": false
    },
    {
        "id": 12,
        "name": "Parc del Clot",
        "coordinates": {
            "latitude": 41.4079019,
            "longitude": 2.190064
        },
        "imageName": "turtlerock",
        "isFavorite": false
    },
    {
        "id": 13,
        "name": "Certio ITV del Clot",
        "coordinates": {
            "latitude": 41.400690,
            "longitude": 2.191319
        },
        "imageName": "umbagog",
        "isFavorite": false
    },
    {
        "id": 14,
        "name": "Discoteca Merlin",
        "coordinates": {
            "latitude": 41.400841,
            "longitude": 2.190799
        },
        "imageName": "stmarylake",
        "isFavorite": false
    },
    {
        "id": 15,
        "name": "Hewlett Packard",
        "coordinates": {
            "latitude": 41.401204,
            "longitude": 2.191227
        },
        "imageName": "yukon_charleyrivers",
        "isFavorite": false
    }
]
 
